stops = {
"type": "FeatureCollection",
"crs": { "type": "name", "properties": { "name": "urn:ogc:def:crs:OGC:1.3:CRS84" } },

"features": [
{ "type": "Feature", "properties": { "STOPNAME": "25th St&Potrero Ave N-MB\/BZ", "TRAPEZESTO": "25STPOT0", "STOPID": 3511.000000, "LATITUDE": 37.751407, "LONGITUDE": -122.406680, "ATSTREET": "POTRERO AVE", "ONSTREET": "25TH ST" }, "geometry": { "type": "Point", "coordinates": [ -122.406679999666963, 37.751407000241457 ] } },
{ "type": "Feature", "properties": { "STOPNAME": "Bryant St&16th St SW-FS\/BZ", "TRAPEZESTO": "BRYT16S0", "STOPID": 3731.000000, "LATITUDE": 37.765300, "LONGITUDE": -122.410540, "ATSTREET": "16TH ST", "ONSTREET": "BRYANT ST" }, "geometry": { "type": "Point", "coordinates": [ -122.410540000202289, 37.765299999212104 ] } },
{ "type": "Feature", "properties": { "STOPNAME": "16th St&Bryant St N-MB\/BZ", "TRAPEZESTO": "16STBRY1", "STOPID": 3281.000000, "LATITUDE": 37.765720, "LONGITUDE": -122.409812, "ATSTREET": "BRYANT ST", "ONSTREET": "16TH ST" }, "geometry": { "type": "Point", "coordinates": [ -122.409812001175482, 37.765719999617787 ] } },
{ "type": "Feature", "properties": { "STOPNAME": "Folsom St&Cesar Chavez St NE-FS\/BZ", "TRAPEZESTO": "FOLSCHAV", "STOPID": 7552.000000, "LATITUDE": 37.748376, "LONGITUDE": -122.413579, "ATSTREET": "ARMY ST", "ONSTREET": "FOLSOM ST" }, "geometry": { "type": "Point", "coordinates": [ -122.413578998906829, 37.748376000666532 ] } },
{ "type": "Feature", "properties": { "STOPNAME": "Cesar Chavez St&Mission St SE-FS\/BZ", "TRAPEZESTO": "CHAVMIS1", "STOPID": 7551.000000, "LATITUDE": 37.748100, "LONGITUDE": -122.418082, "ATSTREET": "MISSION ST", "ONSTREET": "ARMY ST" }, "geometry": { "type": "Point", "coordinates": [ -122.418082000382554, 37.748100001357869 ] } },
{ "type": "Feature", "properties": { "STOPNAME": "24STPOTR", "TRAPEZESTO": "24STPOTR", "STOPID": 7518.000000, "LATITUDE": 37.753067, "LONGITUDE": -122.406210, "ATSTREET": "UTAH ST", "ONSTREET": "24TH ST" }, "geometry": { "type": "Point", "coordinates": [ -122.406210001208677, 37.753066999849182 ] } },
{ "type": "Feature", "properties": { "STOPNAME": "Cesar Chavez St&Valencia St SE-FS\/B", "TRAPEZESTO": "CHAVVLN1", "STOPID": 7592.000000, "LATITUDE": 37.748056, "LONGITUDE": -122.420064, "ATSTREET": "VALENCIA ST", "ONSTREET": "ARMY ST" }, "geometry": { "type": "Point", "coordinates": [ -122.420063999183711, 37.748055999160023 ] } },
{ "type": "Feature", "properties": { "STOPNAME": "Folsom St&22nd St NE-FS\/PS", "TRAPEZESTO": "FOLS22S1", "STOPID": 4675.000000, "LATITUDE": 37.755951, "LONGITUDE": -122.414332, "ATSTREET": "22ND ST", "ONSTREET": "FOLSOM ST" }, "geometry": { "type": "Point", "coordinates": [ -122.414332001150896, 37.755951000399705 ] } },
{ "type": "Feature", "properties": { "STOPNAME": "26th St&Mission St SE-FS\/BZ", "TRAPEZESTO": "26STMIS1", "STOPID": 3519.000000, "LATITUDE": 37.749001, "LONGITUDE": -122.417818, "ATSTREET": "MISSION ST", "ONSTREET": "26TH ST" }, "geometry": { "type": "Point", "coordinates": [ -122.417818001165301, 37.749001000072809 ] } },
{ "type": "Feature", "properties": { "STOPNAME": "Valencia St&Cesar Chavez St NE-FS", "TRAPEZESTO": "VLNCCHA1", "STOPID": 6881.000000, "LATITUDE": 37.748217, "LONGITUDE": -122.420213, "ATSTREET": "ARMY ST", "ONSTREET": "VALENCIA ST" }, "geometry": { "type": "Point", "coordinates": [ -122.42021299868901, 37.748216998756739 ] } },
{ "type": "Feature", "properties": { "STOPNAME": "Valencia St&25th St NE-FS\/BZ", "TRAPEZESTO": "VLNC25S1", "STOPID": 6878.000000, "LATITUDE": 37.750750, "LONGITUDE": -122.420440, "ATSTREET": "25TH ST", "ONSTREET": "VALENCIA ST" }, "geometry": { "type": "Point", "coordinates": [ -122.420440000185522, 37.750749998728743 ] } },
{ "type": "Feature", "properties": { "STOPNAME": "Valencia St&25th St SW-FS\/BZ", "TRAPEZESTO": "VLNC25S0", "STOPID": 6879.000000, "LATITUDE": 37.750280, "LONGITUDE": -122.420590, "ATSTREET": "25TH ST", "ONSTREET": "VALENCIA ST" }, "geometry": { "type": "Point", "coordinates": [ -122.420589999931266, 37.750280000270457 ] } },
{ "type": "Feature", "properties": { "STOPNAME": "Potrero Ave&17th St SW-FS\/BZ", "TRAPEZESTO": "POTR17S0", "STOPID": 6029.000000, "LATITUDE": 37.764230, "LONGITUDE": -122.407540, "ATSTREET": "17TH ST", "ONSTREET": "POTRERO AVE" }, "geometry": { "type": "Point", "coordinates": [ -122.407539999699367, 37.764229998976852 ] } },
{ "type": "Feature", "properties": { "STOPNAME": "Potrero Ave&17th St NE-FS\/BZ", "TRAPEZESTO": "POTR17S1", "STOPID": 6028.000000, "LATITUDE": 37.764738, "LONGITUDE": -122.407349, "ATSTREET": "17TH ST", "ONSTREET": "POTRERO AVE" }, "geometry": { "type": "Point", "coordinates": [ -122.407349001271086, 37.764738000984259 ] } },
{ "type": "Feature", "properties": { "STOPNAME": "Potrero Ave&16th St SW-FS\/BZ", "TRAPEZESTO": "POTR16S0", "STOPID": 6027.000000, "LATITUDE": 37.765701, "LONGITUDE": -122.407646, "ATSTREET": "16TH ST", "ONSTREET": "POTRERO AVE" }, "geometry": { "type": "Point", "coordinates": [ -122.40764600004124, 37.765701000637193 ] } },
{ "type": "Feature", "properties": { "STOPNAME": "Potrero Ave&16th St NE-FS\/BZ", "TRAPEZESTO": "POTR16S1", "STOPID": 6026.000000, "LATITUDE": 37.766031, "LONGITUDE": -122.407474, "ATSTREET": "16TH ST", "ONSTREET": "POTRERO AVE" }, "geometry": { "type": "Point", "coordinates": [ -122.407474000593552, 37.766030998960254 ] } },
{ "type": "Feature", "properties": { "STOPNAME": "Hampshire St&24th St SE-NS\/SB", "TRAPEZESTO": "HAMP24S1", "STOPID": 4964.000000, "LATITUDE": 37.752826, "LONGITUDE": -122.407218, "ATSTREET": "24TH ST", "ONSTREET": "HAMPSHIRE ST" }, "geometry": { "type": "Point", "coordinates": [ -122.407218000505935, 37.752826000574331 ] } },
{ "type": "Feature", "properties": { "STOPNAME": "SF General Hospital E-MB\/BB", "TRAPEZESTO": "POTRHOS1", "STOPID": 6119.000000, "LATITUDE": 37.755413, "LONGITUDE": -122.406472, "ATSTREET": "22ND ST", "ONSTREET": "POTRERO AVE" }, "geometry": { "type": "Point", "coordinates": [ -122.406471999945012, 37.755412999560733 ] } },
{ "type": "Feature", "properties": { "STOPNAME": "Potrero Ave&22nd St NE-FS\/BZ", "TRAPEZESTO": "POTR22S1", "STOPID": 6035.000000, "LATITUDE": 37.757190, "LONGITUDE": -122.406600, "ATSTREET": "22ND ST", "ONSTREET": "POTRERO AVE" }, "geometry": { "type": "Point", "coordinates": [ -122.406599999988828, 37.757189999361302 ] } },
{ "type": "Feature", "properties": { "STOPNAME": "Potrero Ave&15th St NE-FS\/BZ", "TRAPEZESTO": "POTR15S1", "STOPID": 7298.000000, "LATITUDE": 37.767334, "LONGITUDE": -122.407623, "ATSTREET": "15TH ST", "ONSTREET": "POTRERO AVE" }, "geometry": { "type": "Point", "coordinates": [ -122.407623000098852, 37.767333999340735 ] } },
{ "type": "Feature", "properties": { "STOPNAME": "Potrero Ave&24th St SW-FS\/BZ", "TRAPEZESTO": "POTR24S0", "STOPID": 6039.000000, "LATITUDE": 37.752680, "LONGITUDE": -122.406440, "ATSTREET": "24TH ST", "ONSTREET": "POTRERO AVE" }, "geometry": { "type": "Point", "coordinates": [ -122.406440000632557, 37.752679998996406 ] } },
{ "type": "Feature", "properties": { "STOPNAME": "Potrero Ave&24th St NE-FS\/BZ", "TRAPEZESTO": "POTR24S1", "STOPID": 6038.000000, "LATITUDE": 37.753254, "LONGITUDE": -122.406267, "ATSTREET": "24TH ST", "ONSTREET": "POTRERO AVE" }, "geometry": { "type": "Point", "coordinates": [ -122.40626700094441, 37.753254000109635 ] } },
{ "type": "Feature", "properties": { "STOPNAME": "Potrero Ave&23rd St SW-FS\/BZ", "TRAPEZESTO": "POTR23S0", "STOPID": 6037.000000, "LATITUDE": 37.753990, "LONGITUDE": -122.406570, "ATSTREET": "23RD ST", "ONSTREET": "POTRERO AVE" }, "geometry": { "type": "Point", "coordinates": [ -122.406570001157263, 37.753990001060032 ] } },
{ "type": "Feature", "properties": { "STOPNAME": "Potrero Ave&22nd St SW-FS\/BZ", "TRAPEZESTO": "POTR22S0", "STOPID": 6036.000000, "LATITUDE": 37.755880, "LONGITUDE": -122.406750, "ATSTREET": "22ND ST", "ONSTREET": "POTRERO AVE" }, "geometry": { "type": "Point", "coordinates": [ -122.406749999734572, 37.755880000091643 ] } },
{ "type": "Feature", "properties": { "STOPNAME": "Potrero Ave&21st St SW-FS\/BZ", "TRAPEZESTO": "POTR21S0", "STOPID": 6034.000000, "LATITUDE": 37.757490, "LONGITUDE": -122.406900, "ATSTREET": "21ST ST", "ONSTREET": "POTRERO AVE" }, "geometry": { "type": "Point", "coordinates": [ -122.406899999480316, 37.757489998852797 ] } },
{ "type": "Feature", "properties": { "STOPNAME": "Potrero Ave&20th St SW-FS\/BZ", "TRAPEZESTO": "POTR20S0", "STOPID": 6033.000000, "LATITUDE": 37.759080, "LONGITUDE": -122.407050, "ATSTREET": "20TH ST", "ONSTREET": "POTRERO AVE" }, "geometry": { "type": "Point", "coordinates": [ -122.407049999226075, 37.759080001186881 ] } },
{ "type": "Feature", "properties": { "STOPNAME": "Potrero Ave&20th St NE-FS\/BZ", "TRAPEZESTO": "POTR20S1", "STOPID": 6032.000000, "LATITUDE": 37.759620, "LONGITUDE": -122.406840, "ATSTREET": "20TH ST", "ONSTREET": "POTRERO AVE" }, "geometry": { "type": "Point", "coordinates": [ -122.406839999023234, 37.759619999712783 ] } },
{ "type": "Feature", "properties": { "STOPNAME": "Potrero Ave&18th St SW-FS\/BZ", "TRAPEZESTO": "POTR18S0", "STOPID": 6031.000000, "LATITUDE": 37.761640, "LONGITUDE": -122.407290, "ATSTREET": "18TH ST", "ONSTREET": "POTRERO AVE" }, "geometry": { "type": "Point", "coordinates": [ -122.407290001054449, 37.7616399992691 ] } },
{ "type": "Feature", "properties": { "STOPNAME": "Potrero Ave&18th St SE-NS\/BZ", "TRAPEZESTO": "POTR18S1", "STOPID": 6030.000000, "LATITUDE": 37.761850, "LONGITUDE": -122.407050, "ATSTREET": "18TH ST", "ONSTREET": "POTRERO AVE" }, "geometry": { "type": "Point", "coordinates": [ -122.407049999226075, 37.761849999471941 ] } },
{ "type": "Feature", "properties": { "STOPNAME": "Potrero Ave&Alameda St NW-NS\/BZ", "TRAPEZESTO": "POTRALA0", "STOPID": 6043.000000, "LATITUDE": 37.768440, "LONGITUDE": -122.407920, "ATSTREET": "ALAMEDA ST", "ONSTREET": "POTRERO AVE" }, "geometry": { "type": "Point", "coordinates": [ -122.407919998869005, 37.768439999850244 ] } },
{ "type": "Feature", "properties": { "STOPNAME": "Potrero Ave&25th St SW-FS\/BZ", "TRAPEZESTO": "POTR25S0", "STOPID": 6041.000000, "LATITUDE": 37.751264, "LONGITUDE": -122.406337, "ATSTREET": "25TH ST", "ONSTREET": "POTRERO AVE" }, "geometry": { "type": "Point", "coordinates": [ -122.406337001012034, 37.751263999384882 ] } },
{ "type": "Feature", "properties": { "STOPNAME": "Potrero Ave&25th St SE-NS\/BZ", "TRAPEZESTO": "POTR25S1", "STOPID": 6040.000000, "LATITUDE": 37.751640, "LONGITUDE": -122.406080, "ATSTREET": "25TH ST", "ONSTREET": "POTRERO AVE" }, "geometry": { "type": "Point", "coordinates": [ -122.406080000683957, 37.751640000386686 ] } },
{ "type": "Feature", "properties": { "STOPNAME": "24th St&Mission St SW-NS\/BZ", "TRAPEZESTO": "24STMIS1", "STOPID": 3477.000000, "LATITUDE": 37.752178, "LONGITUDE": -122.418550, "ATSTREET": "MISSION ST", "ONSTREET": "24TH ST" }, "geometry": { "type": "Point", "coordinates": [ -122.418550001153903, 37.752178001225658 ] } },
{ "type": "Feature", "properties": { "STOPNAME": "Folsom St&14th St SE-NS\/SB", "TRAPEZESTO": "FOLS14S1", "STOPID": 4667.000000, "LATITUDE": 37.768461, "LONGITUDE": -122.415530, "ATSTREET": "14TH ST", "ONSTREET": "FOLSOM ST" }, "geometry": { "type": "Point", "coordinates": [ -122.415529998635989, 37.768460999311735 ] } },
{ "type": "Feature", "properties": { "STOPNAME": "Folsom St&18th St SW-FS\/SB", "TRAPEZESTO": "FOLS18S0", "STOPID": 4672.000000, "LATITUDE": 37.761858, "LONGITUDE": -122.415086, "ATSTREET": "18TH ST", "ONSTREET": "FOLSOM ST" }, "geometry": { "type": "Point", "coordinates": [ -122.415086000841427, 37.761858001395531 ] } },
{ "type": "Feature", "properties": { "STOPNAME": "Folsom St&14th St SW-FS\/BZ", "TRAPEZESTO": "FOLS14S0", "STOPID": 4666.000000, "LATITUDE": 37.768461, "LONGITUDE": -122.415667, "ATSTREET": "FOLSOM ST", "ONSTREET": "14TH ST" }, "geometry": { "type": "Point", "coordinates": [ -122.41566700084384, 37.768460999311735 ] } },
{ "type": "Feature", "properties": { "STOPNAME": "Folsom St&24th St NW-NS\/BZ", "TRAPEZESTO": "FOLS24S0", "STOPID": 4678.000000, "LATITUDE": 37.752596, "LONGITUDE": -122.414208, "ATSTREET": "24TH ST", "ONSTREET": "FOLSOM ST" }, "geometry": { "type": "Point", "coordinates": [ -122.414207999274907, 37.752596001150444 ] } },
{ "type": "Feature", "properties": { "STOPNAME": "Folsom St&24th St NE-FS\/BZ", "TRAPEZESTO": "FOLS24S1", "STOPID": 4677.000000, "LATITUDE": 37.752757, "LONGITUDE": -122.414024, "ATSTREET": "24TH ST", "ONSTREET": "FOLSOM ST" }, "geometry": { "type": "Point", "coordinates": [ -122.414023999735804, 37.75275700074716 ] } },
{ "type": "Feature", "properties": { "STOPNAME": "Folsom St&22nd St SW-FS\/SB", "TRAPEZESTO": "FOLS22S0", "STOPID": 4676.000000, "LATITUDE": 37.755460, "LONGITUDE": -122.414481, "ATSTREET": "22ND ST", "ONSTREET": "FOLSOM ST" }, "geometry": { "type": "Point", "coordinates": [ -122.414481000656195, 37.755459999685961 ] } },
{ "type": "Feature", "properties": { "STOPNAME": "Folsom St&20th St SE-NS\/SB", "TRAPEZESTO": "FOLS20S1", "STOPID": 4674.000000, "LATITUDE": 37.758815, "LONGITUDE": -122.414606, "ATSTREET": "20TH ST", "ONSTREET": "FOLSOM ST" }, "geometry": { "type": "Point", "coordinates": [ -122.414605999978647, 37.758814998935222 ] } },
{ "type": "Feature", "properties": { "STOPNAME": "Folsom St&18th St NE-FS\/SB", "TRAPEZESTO": "FOLS18S1", "STOPID": 4671.000000, "LATITUDE": 37.762215, "LONGITUDE": -122.414914, "ATSTREET": "18TH ST", "ONSTREET": "FOLSOM ST" }, "geometry": { "type": "Point", "coordinates": [ -122.41491400139374, 37.762215000622774 ] } },
{ "type": "Feature", "properties": { "STOPNAME": "Folsom St&16th St SW-FS\/BZ", "TRAPEZESTO": "FOLS16S0", "STOPID": 4669.000000, "LATITUDE": 37.765231, "LONGITUDE": -122.415417, "ATSTREET": "16TH ST", "ONSTREET": "FOLSOM ST" }, "geometry": { "type": "Point", "coordinates": [ -122.41541699940494, 37.765230999384933 ] } },
{ "type": "Feature", "properties": { "STOPNAME": "Folsom St&16th St NE-FS\/BZ", "TRAPEZESTO": "FOLS16S1", "STOPID": 4668.000000, "LATITUDE": 37.765570, "LONGITUDE": -122.415245, "ATSTREET": "16TH ST", "ONSTREET": "FOLSOM ST" }, "geometry": { "type": "Point", "coordinates": [ -122.415244999957253, 37.765569999872035 ] } },
{ "type": "Feature", "properties": { "STOPNAME": "Folsom St&26th St SW-FS\/PS", "TRAPEZESTO": "FOLS26S0", "STOPID": 4683.000000, "LATITUDE": 37.749063, "LONGITUDE": -122.413854, "ATSTREET": "26TH ST", "ONSTREET": "FOLSOM ST" }, "geometry": { "type": "Point", "coordinates": [ -122.413854000769007, 37.749063001010803 ] } },
{ "type": "Feature", "properties": { "STOPNAME": "Folsom St&25th St SE-NS\/PS", "TRAPEZESTO": "FOLS25S0", "STOPID": 4681.000000, "LATITUDE": 37.750829, "LONGITUDE": -122.413842, "ATSTREET": "25TH ST", "ONSTREET": "FOLSOM ST" }, "geometry": { "type": "Point", "coordinates": [ -122.41384200067759, 37.750829000960401 ] } },
{ "type": "Feature", "properties": { "STOPNAME": "Folsom St&25th St NW-NS\/PS", "TRAPEZESTO": "FOLS25S1", "STOPID": 4680.000000, "LATITUDE": 37.750999, "LONGITUDE": -122.414048, "ATSTREET": "25TH ST", "ONSTREET": "FOLSOM ST" }, "geometry": { "type": "Point", "coordinates": [ -122.414047999918637, 37.750998999927191 ] } },
{ "type": "Feature", "properties": { "STOPNAME": "C. Chavez St&South Van Ness Ave NE", "TRAPEZESTO": "CHAVSOV0", "STOPID": 3936.000000, "LATITUDE": 37.748305, "LONGITUDE": -122.415756, "ATSTREET": "SOUTH VAN NESS AVE", "ONSTREET": "ARMY ST" }, "geometry": { "type": "Point", "coordinates": [ -122.415755999892042, 37.748305000358464 ] } },
{ "type": "Feature", "properties": { "STOPNAME": "Cesar Chavez St&Mission St NW-FS\/BZ", "TRAPEZESTO": "CHAVMIS0", "STOPID": 3935.000000, "LATITUDE": 37.748234, "LONGITUDE": -122.418369, "ATSTREET": "MISSION ST", "ONSTREET": "CESAR CHAVEZ ST" }, "geometry": { "type": "Point", "coordinates": [ -122.418368999542182, 37.748234000050402 ] } },
{ "type": "Feature", "properties": { "STOPNAME": "C. Chavez St&Folsom St NW-FS\/BZ", "TRAPEZESTO": "CHAVFOL0", "STOPID": 3931.000000, "LATITUDE": 37.748340, "LONGITUDE": -122.413980, "ATSTREET": "FOLSOM ST", "ONSTREET": "ARMY ST" }, "geometry": { "type": "Point", "coordinates": [ -122.413980000331918, 37.748340000392275 ] } },
{ "type": "Feature", "properties": { "STOPNAME": "24th St&Valencia St SE-FS\/BZ", "TRAPEZESTO": "24STVLN1", "STOPID": 3486.000000, "LATITUDE": 37.752062, "LONGITUDE": -122.420510, "ATSTREET": "VALENCIA ST", "ONSTREET": "24TH ST" }, "geometry": { "type": "Point", "coordinates": [ -122.420510000253131, 37.752062001273266 ] } },
{ "type": "Feature", "properties": { "STOPNAME": "24th St&Mission St NE-NS\/BZ", "TRAPEZESTO": "24STMIS0", "STOPID": 3476.000000, "LATITUDE": 37.752321, "LONGITUDE": -122.418333, "ATSTREET": "MISSION ST", "ONSTREET": "24TH ST" }, "geometry": { "type": "Point", "coordinates": [ -122.418332999267918, 37.752320999288266 ] } },
{ "type": "Feature", "properties": { "STOPNAME": "23rd St&Utah St NE-NS\/BZ", "TRAPEZESTO": "23STUTA0", "STOPID": 3453.000000, "LATITUDE": 37.754420, "LONGITUDE": -122.404940, "ATSTREET": "UTAH ST", "ONSTREET": "23RD ST" }, "geometry": { "type": "Point", "coordinates": [ -122.404940000381103, 37.754420001076234 ] } },
{ "type": "Feature", "properties": { "STOPNAME": "23rd St&Vermont St SW-NS\/BZ", "TRAPEZESTO": "23STVRM1", "STOPID": 3456.000000, "LATITUDE": 37.754395, "LONGITUDE": -122.403631, "ATSTREET": "VERMONT ST", "ONSTREET": "23RD ST" }, "geometry": { "type": "Point", "coordinates": [ -122.403631001351883, 37.754395000652949 ] } },
{ "type": "Feature", "properties": { "STOPNAME": "23rd St&Vermont St NW-FS\/BZ", "TRAPEZESTO": "23STVRM0", "STOPID": 3455.000000, "LATITUDE": 37.754480, "LONGITUDE": -122.403910, "ATSTREET": "VERMONT ST", "ONSTREET": "23RD ST" }, "geometry": { "type": "Point", "coordinates": [ -122.403910001381902, 37.754479998739363 ] } },
{ "type": "Feature", "properties": { "STOPNAME": "23rd St&Utah St SE-FS\/BZ", "TRAPEZESTO": "23STUTA1", "STOPID": 3454.000000, "LATITUDE": 37.754298, "LONGITUDE": -122.405304, "ATSTREET": "UTAH ST", "ONSTREET": "23RD ST" }, "geometry": { "type": "Point", "coordinates": [ -122.405304001291483, 37.75429799968115 ] } },
{ "type": "Feature", "properties": { "STOPNAME": "Mission St&24th St NE-FS\/BZ", "TRAPEZESTO": "MISS24S1", "STOPID": 5565.000000, "LATITUDE": 37.752730, "LONGITUDE": -122.418410, "ATSTREET": "24TH ST", "ONSTREET": "MISSION ST" }, "geometry": { "type": "Point", "coordinates": [ -122.418410001018685, 37.752729999842977 ] } },
{ "type": "Feature", "properties": { "STOPNAME": "Mission St&20th St SW-FS\/BZ", "TRAPEZESTO": "MISS20S0", "STOPID": 5558.000000, "LATITUDE": 37.758170, "LONGITUDE": -122.419090, "ATSTREET": "20TH ST", "ONSTREET": "MISSION ST" }, "geometry": { "type": "Point", "coordinates": [ -122.419089999679812, 37.758170000307892 ] } },
{ "type": "Feature", "properties": { "STOPNAME": "Mission St&16th St SW-FS\/BB", "TRAPEZESTO": "MISS16S0", "STOPID": 5552.000000, "LATITUDE": 37.764550, "LONGITUDE": -122.419710, "ATSTREET": "16TH ST", "ONSTREET": "MISSION ST" }, "geometry": { "type": "Point", "coordinates": [ -122.41971000067781, 37.764550000483354 ] } },
{ "type": "Feature", "properties": { "STOPNAME": "Mission St&23rd St NE-FS\/BB", "TRAPEZESTO": "MISS23S1", "STOPID": 5563.000000, "LATITUDE": 37.754280, "LONGITUDE": -122.418560, "ATSTREET": "23RD ST", "ONSTREET": "MISSION ST" }, "geometry": { "type": "Point", "coordinates": [ -122.41856000076443, 37.754280000941009 ] } },
{ "type": "Feature", "properties": { "STOPNAME": "Mission St&19th St SW-FS\/BZ", "TRAPEZESTO": "MISS19S0", "STOPID": 5556.000000, "LATITUDE": 37.759800, "LONGITUDE": -122.419250, "ATSTREET": "19TH ST", "ONSTREET": "MISSION ST" }, "geometry": { "type": "Point", "coordinates": [ -122.419249999036083, 37.759800001084059 ] } },
{ "type": "Feature", "properties": { "STOPNAME": "Mission St&26th St SW-FS\/BZ", "TRAPEZESTO": "MISS26S0", "STOPID": 5568.000000, "LATITUDE": 37.748570, "LONGITUDE": -122.418180, "ATSTREET": "26TH ST", "ONSTREET": "MISSION ST" }, "geometry": { "type": "Point", "coordinates": [ -122.418179998800824, 37.748569999816155 ] } },
{ "type": "Feature", "properties": { "STOPNAME": "Mission St&26th St NE-FS\/BZ", "TRAPEZESTO": "MISS26S1", "STOPID": 5567.000000, "LATITUDE": 37.749510, "LONGITUDE": -122.418100, "ATSTREET": "26TH ST", "ONSTREET": "MISSION ST" }, "geometry": { "type": "Point", "coordinates": [ -122.418099999122688, 37.749509999526701 ] } },
{ "type": "Feature", "properties": { "STOPNAME": "Mission St&24th St SW-FS\/BZ", "TRAPEZESTO": "MISS24S0", "STOPID": 5566.000000, "LATITUDE": 37.751964, "LONGITUDE": -122.418528, "ATSTREET": "24TH ST", "ONSTREET": "MISSION ST" }, "geometry": { "type": "Point", "coordinates": [ -122.418527998658007, 37.751964000061022 ] } },
{ "type": "Feature", "properties": { "STOPNAME": "Mission St&23rd St SW-FS\/BB", "TRAPEZESTO": "MISS23S0", "STOPID": 5564.000000, "LATITUDE": 37.753430, "LONGITUDE": -122.418630, "ATSTREET": "23RD ST", "ONSTREET": "MISSION ST" }, "geometry": { "type": "Point", "coordinates": [ -122.418630000832039, 37.753430000519117 ] } },
{ "type": "Feature", "properties": { "STOPNAME": "Mission St&22nd St SW-FS\/BB", "TRAPEZESTO": "MISS22S0", "STOPID": 5562.000000, "LATITUDE": 37.755170, "LONGITUDE": -122.418800, "ATSTREET": "22ND ST", "ONSTREET": "MISSION ST" }, "geometry": { "type": "Point", "coordinates": [ -122.418799999798836, 37.755169999804984 ] } },
{ "type": "Feature", "properties": { "STOPNAME": "Mission St&22nd St NE-FS\/BB", "TRAPEZESTO": "MISS22S1", "STOPID": 5561.000000, "LATITUDE": 37.755820, "LONGITUDE": -122.418710, "ATSTREET": "22ND ST", "ONSTREET": "MISSION ST" }, "geometry": { "type": "Point", "coordinates": [ -122.418710000510174, 37.755819999634546 ] } },
{ "type": "Feature", "properties": { "STOPNAME": "Mission St&21st St SW-FS\/BZ", "TRAPEZESTO": "MISS21S0", "STOPID": 5560.000000, "LATITUDE": 37.756590, "LONGITUDE": -122.418950, "ATSTREET": "21ST ST", "ONSTREET": "MISSION ST" }, "geometry": { "type": "Point", "coordinates": [ -122.41894999954458, 37.756590000378303 ] } },
{ "type": "Feature", "properties": { "STOPNAME": "Mission St&21st St NE-FS\/BZ", "TRAPEZESTO": "MISS21S1", "STOPID": 5559.000000, "LATITUDE": 37.757510, "LONGITUDE": -122.418870, "ATSTREET": "21ST ST", "ONSTREET": "MISSION ST" }, "geometry": { "type": "Point", "coordinates": [ -122.418869999866445, 37.757510000867804 ] } },
{ "type": "Feature", "properties": { "STOPNAME": "Mission St&20th St NE-FS\/BZ", "TRAPEZESTO": "MISS20S1", "STOPID": 5557.000000, "LATITUDE": 37.759110, "LONGITUDE": -122.419020, "ATSTREET": "20TH ST", "ONSTREET": "MISSION ST" }, "geometry": { "type": "Point", "coordinates": [ -122.419019999612203, 37.759110000018438 ] } },
{ "type": "Feature", "properties": { "STOPNAME": "Mission St&19th St NE-FS\/BZ", "TRAPEZESTO": "MISS19S1", "STOPID": 5555.000000, "LATITUDE": 37.760660, "LONGITUDE": -122.419170, "ATSTREET": "19TH ST", "ONSTREET": "MISSION ST" }, "geometry": { "type": "Point", "coordinates": [ -122.419169999357948, 37.76066000111647 ] } },
{ "type": "Feature", "properties": { "STOPNAME": "Mission St&18th St SW-FS\/BZ", "TRAPEZESTO": "MISS18S0", "STOPID": 5554.000000, "LATITUDE": 37.761761, "LONGITUDE": -122.419463, "ATSTREET": "18TH ST", "ONSTREET": "MISSION ST" }, "geometry": { "type": "Point", "coordinates": [ -122.419462999960274, 37.761761000423732 ] } },
{ "type": "Feature", "properties": { "STOPNAME": "Mission St&18th St NE-FS\/BZ", "TRAPEZESTO": "MISS18S1", "STOPID": 5553.000000, "LATITUDE": 37.762635, "LONGITUDE": -122.419348, "ATSTREET": "18TH ST", "ONSTREET": "MISSION ST" }, "geometry": { "type": "Point", "coordinates": [ -122.419348000248334, 37.762635001028457 ] } },
{ "type": "Feature", "properties": { "STOPNAME": "Mission St&16th St NE-FS\/BZ", "TRAPEZESTO": "MISS16S1", "STOPID": 5551.000000, "LATITUDE": 37.765540, "LONGITUDE": -122.419640, "ATSTREET": "16TH ST", "ONSTREET": "MISSION ST" }, "geometry": { "type": "Point", "coordinates": [ -122.419640000610201, 37.76554000104047 ] } },
{ "type": "Feature", "properties": { "STOPNAME": "Mission St&15th St SW-FS\/BZ", "TRAPEZESTO": "MISS15S0", "STOPID": 5550.000000, "LATITUDE": 37.766200, "LONGITUDE": -122.419860, "ATSTREET": "15TH ST", "ONSTREET": "MISSION ST" }, "geometry": { "type": "Point", "coordinates": [ -122.419860000423569, 37.766200000480559 ] } },
{ "type": "Feature", "properties": { "STOPNAME": "Mission St&15th St NE-FS\/BZ", "TRAPEZESTO": "MISS15S1", "STOPID": 5549.000000, "LATITUDE": 37.767140, "LONGITUDE": -122.419790, "ATSTREET": "15TH ST", "ONSTREET": "MISSION ST" }, "geometry": { "type": "Point", "coordinates": [ -122.419790000355945, 37.767140000191105 ] } },
{ "type": "Feature", "properties": { "STOPNAME": "Mission St&14th St SW-FS\/BZ", "TRAPEZESTO": "MISS14S0", "STOPID": 5548.000000, "LATITUDE": 37.767800, "LONGITUDE": -122.420020, "ATSTREET": "14TH ST", "ONSTREET": "MISSION ST" }, "geometry": { "type": "Point", "coordinates": [ -122.420019999779839, 37.767799999631194 ] } },
{ "type": "Feature", "properties": { "STOPNAME": "Mission St&14th St NE-FS\/BZ", "TRAPEZESTO": "MISS14S1", "STOPID": 5547.000000, "LATITUDE": 37.768620, "LONGITUDE": -122.419930, "ATSTREET": "14TH ST", "ONSTREET": "MISSION ST" }, "geometry": { "type": "Point", "coordinates": [ -122.419930000491178, 37.768620001221521 ] } },
{ "type": "Feature", "properties": { "STOPNAME": "16th St&San Bruno Ave SE-FS\/BZ", "TRAPEZESTO": "16STSBR0", "STOPID": 3297.000000, "LATITUDE": 37.765861, "LONGITUDE": -122.405515, "ATSTREET": "SAN BRUNO AVE", "ONSTREET": "16TH ST" }, "geometry": { "type": "Point", "coordinates": [ -122.405514998940802, 37.765860999993464 ] } },
{ "type": "Feature", "properties": { "STOPNAME": "Bryant St&Mariposa St SE-NS\/BZ", "TRAPEZESTO": "BRYTMAR1", "STOPID": 3757.000000, "LATITUDE": 37.762940, "LONGITUDE": -122.410160, "ATSTREET": "MARIPOSA ST", "ONSTREET": "BRYANT ST" }, "geometry": { "type": "Point", "coordinates": [ -122.410160001032651, 37.762939998928232 ] } },
{ "type": "Feature", "properties": { "STOPNAME": "Bryant St&Mariposa St NW-NS\/BZ", "TRAPEZESTO": "BRYTMAR0", "STOPID": 3756.000000, "LATITUDE": 37.763140, "LONGITUDE": -122.410320, "ATSTREET": "MARIPOSA ST", "ONSTREET": "BRYANT ST" }, "geometry": { "type": "Point", "coordinates": [ -122.410320000388921, 37.763139999520554 ] } },
{ "type": "Feature", "properties": { "STOPNAME": "Cesar Chavez St&Florida St SW-NS\/BZ", "TRAPEZESTO": "CHAVFLO1", "STOPID": 3930.000000, "LATITUDE": 37.748230, "LONGITUDE": -122.409760, "ATSTREET": "FLORIDA ST", "ONSTREET": "CESAR CHAVEZ ST" }, "geometry": { "type": "Point", "coordinates": [ -122.409759999848006, 37.748229999088608 ] } },
{ "type": "Feature", "properties": { "STOPNAME": "Bryant St&25th St SE-NS\/BZ", "TRAPEZESTO": "BRYT25S1", "STOPID": 3749.000000, "LATITUDE": 37.751110, "LONGITUDE": -122.408890, "ATSTREET": "25TH ST", "ONSTREET": "BRYANT ST" }, "geometry": { "type": "Point", "coordinates": [ -122.408890000205076, 37.751109998677336 ] } },
{ "type": "Feature", "properties": { "STOPNAME": "Cesar Chavez St&Harrison St SW-NS", "TRAPEZESTO": "CHAVHAR1", "STOPID": 3934.000000, "LATITUDE": 37.748200, "LONGITUDE": -122.411630, "ATSTREET": "HARRISON ST", "ONSTREET": "CESAR CHAVEZ ST" }, "geometry": { "type": "Point", "coordinates": [ -122.411629999658572, 37.748200000257043 ] } },
{ "type": "Feature", "properties": { "STOPNAME": "Bryant St&22nd St NE-FS\/BB", "TRAPEZESTO": "BRYT22S1", "STOPID": 3742.000000, "LATITUDE": 37.756210, "LONGITUDE": -122.409420, "ATSTREET": "22ND ST", "ONSTREET": "BRYANT ST" }, "geometry": { "type": "Point", "coordinates": [ -122.409419999120459, 37.756210001208672 ] } },
{ "type": "Feature", "properties": { "STOPNAME": "Bryant St&19th St SE-NS\/BZ", "TRAPEZESTO": "BRYT19S1", "STOPID": 3737.000000, "LATITUDE": 37.760380, "LONGITUDE": -122.409910, "ATSTREET": "19TH ST", "ONSTREET": "BRYANT ST" }, "geometry": { "type": "Point", "coordinates": [ -122.409909999593751, 37.760380000846013 ] } },
{ "type": "Feature", "properties": { "STOPNAME": "Bryant St&16th St SE-NS\/BZ", "TRAPEZESTO": "BRYT16S1", "STOPID": 3730.000000, "LATITUDE": 37.765490, "LONGITUDE": -122.410400, "ATSTREET": "16TH ST", "ONSTREET": "BRYANT ST" }, "geometry": { "type": "Point", "coordinates": [ -122.410400000067057, 37.7654900001939 ] } },
{ "type": "Feature", "properties": { "STOPNAME": "Bryant St&Alameda St NE-FS\/BZ", "TRAPEZESTO": "BRYTALA1", "STOPID": 3752.000000, "LATITUDE": 37.768450, "LONGITUDE": -122.410680, "ATSTREET": "ALAMEDA ST", "ONSTREET": "BRYANT ST" }, "geometry": { "type": "Point", "coordinates": [ -122.410680000337507, 37.768449999460763 ] } },
{ "type": "Feature", "properties": { "STOPNAME": "16th St&Folsom St NW-FS\/BZ", "TRAPEZESTO": "16STFOL1", "STOPID": 7289.000000, "LATITUDE": 37.765400, "LONGITUDE": -122.415428, "ATSTREET": "FOLSOM ST", "ONSTREET": "16TH ST" }, "geometry": { "type": "Point", "coordinates": [ -122.415427999255911, 37.765400000905245 ] } },
{ "type": "Feature", "properties": { "STOPNAME": "16th St&Bryant St SE-FS\/BZ", "TRAPEZESTO": "16STBRY0", "STOPID": 3282.000000, "LATITUDE": 37.765568, "LONGITUDE": -122.410328, "ATSTREET": "BRYANT ST", "ONSTREET": "16TH ST" }, "geometry": { "type": "Point", "coordinates": [ -122.410327999518543, 37.765567999391138 ] } },
{ "type": "Feature", "properties": { "STOPNAME": "16th St&Valencia St NE-NS\/BZ", "TRAPEZESTO": "16STVLN1", "STOPID": 3300.000000, "LATITUDE": 37.764987, "LONGITUDE": -122.421746, "ATSTREET": "VALENCIA ST", "ONSTREET": "16TH ST" }, "geometry": { "type": "Point", "coordinates": [ -122.421746001287346, 37.764986999388739 ] } },
{ "type": "Feature", "properties": { "STOPNAME": "16th St&Potrero Ave SW-NS\/BZ", "TRAPEZESTO": "16STPOT0", "STOPID": 3296.000000, "LATITUDE": 37.765701, "LONGITUDE": -122.407646, "ATSTREET": "POTRERO AVE", "ONSTREET": "16TH ST" }, "geometry": { "type": "Point", "coordinates": [ -122.40764600004124, 37.765701000637193 ] } },
{ "type": "Feature", "properties": { "STOPNAME": "16th St&Potrero Ave NW-FS\/BZ", "TRAPEZESTO": "16STPOT1", "STOPID": 3295.000000, "LATITUDE": 37.765862, "LONGITUDE": -122.407669, "ATSTREET": "POTRERO AVE", "ONSTREET": "16TH ST" }, "geometry": { "type": "Point", "coordinates": [ -122.407668999983628, 37.765862000233909 ] } },
{ "type": "Feature", "properties": { "STOPNAME": "16th St&Mission St SW-NS\/BZ", "TRAPEZESTO": "16STMIS2", "STOPID": 3293.000000, "LATITUDE": 37.764983, "LONGITUDE": -122.419835, "ATSTREET": "MISSION ST", "ONSTREET": "16TH ST" }, "geometry": { "type": "Point", "coordinates": [ -122.419835000000276, 37.764983001220905 ] } },
{ "type": "Feature", "properties": { "STOPNAME": "16th St&Mission St NE-NS\/BZ", "TRAPEZESTO": "16STMIS1", "STOPID": 3291.000000, "LATITUDE": 37.765143, "LONGITUDE": -122.419600, "ATSTREET": "MISSION ST", "ONSTREET": "16TH ST" }, "geometry": { "type": "Point", "coordinates": [ -122.419599999374157, 37.765143000577176 ] } },
{ "type": "Feature", "properties": { "STOPNAME": "16th St&Harrison St SW-NS\/BZ", "TRAPEZESTO": "16STHAR0", "STOPID": 3289.000000, "LATITUDE": 37.765377, "LONGITUDE": -122.413290, "ATSTREET": "HARRISON ST", "ONSTREET": "16TH ST" }, "geometry": { "type": "Point", "coordinates": [ -122.413289999266297, 37.765377000962857 ] } },
{ "type": "Feature", "properties": { "STOPNAME": "16th St&Harrison St NE-NS\/BZ", "TRAPEZESTO": "16STHAR1", "STOPID": 3288.000000, "LATITUDE": 37.765523, "LONGITUDE": -122.412976, "ATSTREET": "HARRISON ST", "ONSTREET": "16TH ST" }, "geometry": { "type": "Point", "coordinates": [ -122.412975999202487, 37.765522999746814 ] } },
{ "type": "Feature", "properties": { "STOPNAME": "16th St&Guerrero St NE-NS\/BZ", "TRAPEZESTO": "16STGUE1", "STOPID": 3286.000000, "LATITUDE": 37.764853, "LONGITUDE": -122.423959, "ATSTREET": "GUERRERO ST", "ONSTREET": "16TH ST" }, "geometry": { "type": "Point", "coordinates": [ -122.423958999752841, 37.764853000696199 ] } },
{ "type": "Feature", "properties": { "STOPNAME": "16th St&Dolores St NE-NS\/PS", "TRAPEZESTO": "16STDLR1", "STOPID": 3284.000000, "LATITUDE": 37.764731, "LONGITUDE": -122.426156, "ATSTREET": "DOLORES ST", "ONSTREET": "16TH ST" }, "geometry": { "type": "Point", "coordinates": [ -122.426155999959093, 37.764730999301115 ] } },
{ "type": "Feature", "properties": { "STOPNAME": "Bryant St&Division St SW-FS\/BZ", "TRAPEZESTO": "BRYTDIV0", "STOPID": 3755.000000, "LATITUDE": 37.769110, "LONGITUDE": -122.410910, "ATSTREET": "DIVISION ST", "ONSTREET": "BRYANT ST" }, "geometry": { "type": "Point", "coordinates": [ -122.410909999761401, 37.769109998900852 ] } },
{ "type": "Feature", "properties": { "STOPNAME": "Bryant St&Alameda St W-MI\/BZ", "TRAPEZESTO": "BRYTALA0", "STOPID": 3753.000000, "LATITUDE": 37.768100, "LONGITUDE": -122.410810, "ATSTREET": "ALAMEDA ST", "ONSTREET": "BRYANT ST" }, "geometry": { "type": "Point", "coordinates": [ -122.410810000862213, 37.768099999122697 ] } },
{ "type": "Feature", "properties": { "STOPNAME": "Bryant St&26th St SE-NS\/BZ", "TRAPEZESTO": "BRYT26S1", "STOPID": 3751.000000, "LATITUDE": 37.749510, "LONGITUDE": -122.408730, "ATSTREET": "26TH ST", "ONSTREET": "BRYANT ST" }, "geometry": { "type": "Point", "coordinates": [ -122.408730000848806, 37.749509999526701 ] } },
{ "type": "Feature", "properties": { "STOPNAME": "Bryant St&26th St NW-NS\/BZ", "TRAPEZESTO": "BRYT26S0", "STOPID": 3750.000000, "LATITUDE": 37.749690, "LONGITUDE": -122.408910, "ATSTREET": "26TH ST", "ONSTREET": "BRYANT ST" }, "geometry": { "type": "Point", "coordinates": [ -122.408909999426115, 37.749690000897978 ] } },
{ "type": "Feature", "properties": { "STOPNAME": "Cesar Chavez St&Alabama St NE-NS\/BZ", "TRAPEZESTO": "CHAVALA0", "STOPID": 3928.000000, "LATITUDE": 37.748420, "LONGITUDE": -122.410430, "ATSTREET": "ALABAMA ST", "ONSTREET": "CESAR CHAVEZ ST" }, "geometry": { "type": "Point", "coordinates": [ -122.410429998898621, 37.748420000070411 ] } },
{ "type": "Feature", "properties": { "STOPNAME": "Cesar Chavez St&Bryant St NW-FS\/BZ", "TRAPEZESTO": "CHAVBRY0", "STOPID": 3929.000000, "LATITUDE": 37.748450, "LONGITUDE": -122.409090, "ATSTREET": "BRYANT ST", "ONSTREET": "CESAR CHAVEZ ST" }, "geometry": { "type": "Point", "coordinates": [ -122.409090000797391, 37.748449998901968 ] } },
{ "type": "Feature", "properties": { "STOPNAME": "26th St&South Van Ness Ave SW-NS\/SB", "TRAPEZESTO": "26STSOV1", "STOPID": 3523.000000, "LATITUDE": 37.749108, "LONGITUDE": -122.416065, "ATSTREET": "SOUTH VAN NESS AVE", "ONSTREET": "26TH ST" }, "geometry": { "type": "Point", "coordinates": [ -122.416064998753612, 37.749108000655127 ] } },
{ "type": "Feature", "properties": { "STOPNAME": "Bryant St&24th St NE-FS\/BZ", "TRAPEZESTO": "BRYT24S1", "STOPID": 3746.000000, "LATITUDE": 37.753060, "LONGITUDE": -122.409070, "ATSTREET": "24TH ST", "ONSTREET": "BRYANT ST" }, "geometry": { "type": "Point", "coordinates": [ -122.409069998782385, 37.753060000960005 ] } },
{ "type": "Feature", "properties": { "STOPNAME": "Bryant St&23rd St SW-FS\/BB", "TRAPEZESTO": "BRYT23S0", "STOPID": 3745.000000, "LATITUDE": 37.754150, "LONGITUDE": -122.409320, "ATSTREET": "23RD ST", "ONSTREET": "BRYANT ST" }, "geometry": { "type": "Point", "coordinates": [ -122.409320000221285, 37.754150000416303 ] } },
{ "type": "Feature", "properties": { "STOPNAME": "Bryant St&23rd St SE-NS\/BZ", "TRAPEZESTO": "BRYT23S1", "STOPID": 3744.000000, "LATITUDE": 37.754310, "LONGITUDE": -122.409190, "ATSTREET": "23RD ST", "ONSTREET": "BRYANT ST" }, "geometry": { "type": "Point", "coordinates": [ -122.409189999696579, 37.754309999772573 ] } },
{ "type": "Feature", "properties": { "STOPNAME": "Bryant St&22nd St SW-FS\/BZ", "TRAPEZESTO": "BRYT22S0", "STOPID": 3743.000000, "LATITUDE": 37.755720, "LONGITUDE": -122.409490, "ATSTREET": "22ND ST", "ONSTREET": "BRYANT ST" }, "geometry": { "type": "Point", "coordinates": [ -122.409489999188068, 37.755720000735373 ] } },
{ "type": "Feature", "properties": { "STOPNAME": "Bryant St&21st St SW-FS\/BB", "TRAPEZESTO": "BRYT21S0", "STOPID": 3741.000000, "LATITUDE": 37.757400, "LONGITUDE": -122.409610, "ATSTREET": "21ST ST", "ONSTREET": "BRYANT ST" }, "geometry": { "type": "Point", "coordinates": [ -122.409610000102262, 37.757399999564143 ] } },
{ "type": "Feature", "properties": { "STOPNAME": "Bryant St&25th St NW-NS\/BZ", "TRAPEZESTO": "BRYT25S0", "STOPID": 3748.000000, "LATITUDE": 37.751300, "LONGITUDE": -122.409070, "ATSTREET": "25TH ST", "ONSTREET": "BRYANT ST" }, "geometry": { "type": "Point", "coordinates": [ -122.409069998782385, 37.751299999659139 ] } },
{ "type": "Feature", "properties": { "STOPNAME": "Bryant St&24th St SW-FS\/BZ", "TRAPEZESTO": "BRYT24S0", "STOPID": 3747.000000, "LATITUDE": 37.752520, "LONGITUDE": -122.409190, "ATSTREET": "24TH ST", "ONSTREET": "BRYANT ST" }, "geometry": { "type": "Point", "coordinates": [ -122.409189999696579, 37.752519999640135 ] } },
{ "type": "Feature", "properties": { "STOPNAME": "C. Chavez St&Harrison St NW-FS\/BZ", "TRAPEZESTO": "CHAVHAR0", "STOPID": 3933.000000, "LATITUDE": 37.748400, "LONGITUDE": -122.411900, "ATSTREET": "FOLSOM ST", "ONSTREET": "CESAR CHAVEZ ST" }, "geometry": { "type": "Point", "coordinates": [ -122.411900000318511, 37.748400000849365 ] } },
{ "type": "Feature", "properties": { "STOPNAME": "Cesar Chavez St&Folsom St SW-NS\/BZ", "TRAPEZESTO": "CHAVFOL1", "STOPID": 3932.000000, "LATITUDE": 37.748150, "LONGITUDE": -122.413820, "ATSTREET": "FOLSOM ST", "ONSTREET": "CESAR CHAVEZ ST" }, "geometry": { "type": "Point", "coordinates": [ -122.413820000975647, 37.748149999410472 ] } },
{ "type": "Feature", "properties": { "STOPNAME": "Bryant St&21st St SE-NS\/BZ", "TRAPEZESTO": "BRYT21S1", "STOPID": 3740.000000, "LATITUDE": 37.757510, "LONGITUDE": -122.409500, "ATSTREET": "21ST ST", "ONSTREET": "BRYANT ST" }, "geometry": { "type": "Point", "coordinates": [ -122.409499998798594, 37.757510000867804 ] } },
{ "type": "Feature", "properties": { "STOPNAME": "Bryant St&20th St SE-NS\/BZ", "TRAPEZESTO": "BRYT20S1", "STOPID": 3739.000000, "LATITUDE": 37.759110, "LONGITUDE": -122.409660, "ATSTREET": "20TH ST", "ONSTREET": "BRYANT ST" }, "geometry": { "type": "Point", "coordinates": [ -122.409660000948833, 37.759110000018438 ] } },
{ "type": "Feature", "properties": { "STOPNAME": "Bryant St&20th St NW-NS\/PS", "TRAPEZESTO": "BRYT20S0", "STOPID": 3738.000000, "LATITUDE": 37.759330, "LONGITUDE": -122.409930, "ATSTREET": "20TH ST", "ONSTREET": "BRYANT ST" }, "geometry": { "type": "Point", "coordinates": [ -122.409929998814803, 37.759329999831806 ] } },
{ "type": "Feature", "properties": { "STOPNAME": "Bryant St&19th St NW-NS\/BZ", "TRAPEZESTO": "BRYT19S0", "STOPID": 3736.000000, "LATITUDE": 37.760580, "LONGITUDE": -122.410080, "ATSTREET": "19TH ST", "ONSTREET": "BRYANT ST" }, "geometry": { "type": "Point", "coordinates": [ -122.410080001354515, 37.760579998644367 ] } },
{ "type": "Feature", "properties": { "STOPNAME": "Bryant St&18th St SE-NS\/BZ", "TRAPEZESTO": "BRYT18S1", "STOPID": 3735.000000, "LATITUDE": 37.761670, "LONGITUDE": -122.410040, "ATSTREET": "18TH ST", "ONSTREET": "BRYANT ST" }, "geometry": { "type": "Point", "coordinates": [ -122.410040000118471, 37.761670000894625 ] } },
{ "type": "Feature", "properties": { "STOPNAME": "Bryant St&18th St NW-NS\/BZ", "TRAPEZESTO": "BRYT18S0", "STOPID": 3734.000000, "LATITUDE": 37.761870, "LONGITUDE": -122.410200, "ATSTREET": "18TH ST", "ONSTREET": "BRYANT ST" }, "geometry": { "type": "Point", "coordinates": [ -122.410199999474727, 37.76186999869298 ] } },
{ "type": "Feature", "properties": { "STOPNAME": "Bryant St&17th St SW-FS\/BZ", "TRAPEZESTO": "BRYT17S0", "STOPID": 3733.000000, "LATITUDE": 37.764020, "LONGITUDE": -122.410410, "ATSTREET": "17TH ST", "ONSTREET": "BRYANT ST" }, "geometry": { "type": "Point", "coordinates": [ -122.410409999677583, 37.76401999877401 ] } },
{ "type": "Feature", "properties": { "STOPNAME": "Bryant St&17th St SE-NS\/BZ", "TRAPEZESTO": "BRYT17S1", "STOPID": 3732.000000, "LATITUDE": 37.764220, "LONGITUDE": -122.410280, "ATSTREET": "17TH ST", "ONSTREET": "BRYANT ST" }, "geometry": { "type": "Point", "coordinates": [ -122.410279999152863, 37.764219999366325 ] } },
{ "type": "Feature", "properties": { "STOPNAME": "18th St&Guerrero St SE-FS\/BZ", "TRAPEZESTO": "18STGUE0", "STOPID": 3334.000000, "LATITUDE": 37.761521, "LONGITUDE": -122.423646, "ATSTREET": "GUERRERO ST", "ONSTREET": "18TH ST" }, "geometry": { "type": "Point", "coordinates": [ -122.423645999929477, 37.761521001389326 ] } },
{ "type": "Feature", "properties": { "STOPNAME": "18th St&Dolores St SE-FS\/BZ", "TRAPEZESTO": "18STDLR0", "STOPID": 3331.000000, "LATITUDE": 37.761388, "LONGITUDE": -122.425927, "ATSTREET": "DOLORES ST", "ONSTREET": "18TH ST" }, "geometry": { "type": "Point", "coordinates": [ -122.425927000775658, 37.761388000143278 ] } },
{ "type": "Feature", "properties": { "STOPNAME": "18th St&Valencia St SE-FS\/BZ", "TRAPEZESTO": "18STVLN0", "STOPID": 3349.000000, "LATITUDE": 37.761663, "LONGITUDE": -122.421423, "ATSTREET": "VALENCIA ST", "ONSTREET": "18TH ST" }, "geometry": { "type": "Point", "coordinates": [ -122.421422999059502, 37.761662999211488 ] } },
{ "type": "Feature", "properties": { "STOPNAME": "16th St&Mission St SE-FS\/BZ", "TRAPEZESTO": "16STMIS0", "STOPID": 3292.000000, "LATITUDE": 37.765020, "LONGITUDE": -122.419280, "ATSTREET": "MISSION ST", "ONSTREET": "16TH ST" }, "geometry": { "type": "Point", "coordinates": [ -122.419280000661615, 37.765019998941646 ] } },
{ "type": "Feature", "properties": { "STOPNAME": "Valencia St&Cesar Chavez St SW-FS", "TRAPEZESTO": "VLNCCHA0", "STOPID": 6882.000000, "LATITUDE": 37.747994, "LONGITUDE": -122.420351, "ATSTREET": "ARMY ST", "ONSTREET": "VALENCIA ST" }, "geometry": { "type": "Point", "coordinates": [ -122.420351001137306, 37.747994001015996 ] } },
{ "type": "Feature", "properties": { "STOPNAME": "24th St&Guerrero St SW-NS\/BZ", "TRAPEZESTO": "24STGUE1", "STOPID": 3472.000000, "LATITUDE": 37.751911, "LONGITUDE": -122.422985, "ATSTREET": "GUERRERO ST", "ONSTREET": "24TH ST" }, "geometry": { "type": "Point", "coordinates": [ -122.422985000248943, 37.75191100128707 ] } },
{ "type": "Feature", "properties": { "STOPNAME": "24th St&Harrison St SE-FS\/BZ", "TRAPEZESTO": "24STHAR1", "STOPID": 3474.000000, "LATITUDE": 37.752587, "LONGITUDE": -122.411744, "ATSTREET": "HARRISON ST", "ONSTREET": "24TH ST" }, "geometry": { "type": "Point", "coordinates": [ -122.411743999130067, 37.752586998986402 ] } },
{ "type": "Feature", "properties": { "STOPNAME": "24th St&South Van Ness Ave NE-NS", "TRAPEZESTO": "24STSOV0", "STOPID": 3483.000000, "LATITUDE": 37.752445, "LONGITUDE": -122.416156, "ATSTREET": "SOUTH VAN NESS AVE", "ONSTREET": "24TH ST" }, "geometry": { "type": "Point", "coordinates": [ -122.416156001076686, 37.752445001164247 ] } },
{ "type": "Feature", "properties": { "STOPNAME": "24th St&Bryant St NW-FS\/BZ", "TRAPEZESTO": "24STBRY0", "STOPID": 3458.000000, "LATITUDE": 37.752853, "LONGITUDE": -122.409281, "ATSTREET": "BRYANT ST", "ONSTREET": "24TH ST" }, "geometry": { "type": "Point", "coordinates": [ -122.409280999225686, 37.752852998684546 ] } },
{ "type": "Feature", "properties": { "STOPNAME": "24th St&Harrison St NW-FS\/BZ", "TRAPEZESTO": "24STHAR0", "STOPID": 3473.000000, "LATITUDE": 37.752694, "LONGITUDE": -122.412054, "ATSTREET": "HARRISON ST", "ONSTREET": "24TH ST" }, "geometry": { "type": "Point", "coordinates": [ -122.41205400102605, 37.75269399956872 ] } },
{ "type": "Feature", "properties": { "STOPNAME": "24th St&Folsom St SE-FS\/BZ", "TRAPEZESTO": "24STFOL1", "STOPID": 3470.000000, "LATITUDE": 37.752462, "LONGITUDE": -122.413933, "ATSTREET": "FOLSOM ST", "ONSTREET": "24TH ST" }, "geometry": { "type": "Point", "coordinates": [ -122.413933000206697, 37.752461999663943 ] } },
{ "type": "Feature", "properties": { "STOPNAME": "24th St&Folsom St NW-FS\/BZ", "TRAPEZESTO": "24STFOL0", "STOPID": 3469.000000, "LATITUDE": 37.752560, "LONGITUDE": -122.414242, "ATSTREET": "FOLSOM ST", "ONSTREET": "24TH ST" }, "geometry": { "type": "Point", "coordinates": [ -122.414241999068267, 37.752560000876187 ] } },
{ "type": "Feature", "properties": { "STOPNAME": "24th St&Dolores St SW-NS\/BZ", "TRAPEZESTO": "24STDLR1", "STOPID": 3467.000000, "LATITUDE": 37.751787, "LONGITUDE": -122.425265, "ATSTREET": "DOLORES ST", "ONSTREET": "24TH ST" }, "geometry": { "type": "Point", "coordinates": [ -122.425265000854679, 37.751786999411088 ] } },
{ "type": "Feature", "properties": { "STOPNAME": "24th St&Dolores St NW-FS\/BZ", "TRAPEZESTO": "24STDLR0", "STOPID": 3466.000000, "LATITUDE": 37.751903, "LONGITUDE": -122.425311, "ATSTREET": "DOLORES ST", "ONSTREET": "24TH ST" }, "geometry": { "type": "Point", "coordinates": [ -122.425311000739455, 37.75190299936348 ] } },
{ "type": "Feature", "properties": { "STOPNAME": "24th St&Bryant St SE-FS\/BZ", "TRAPEZESTO": "24STBRY1", "STOPID": 3459.000000, "LATITUDE": 37.752755, "LONGITUDE": -122.408971, "ATSTREET": "BRYANT ST", "ONSTREET": "24TH ST" }, "geometry": { "type": "Point", "coordinates": [ -122.408971000123657, 37.752755000266262 ] } },
{ "type": "Feature", "properties": { "STOPNAME": "24th St&Valencia St NE-NS\/BZ", "TRAPEZESTO": "24STVLN0", "STOPID": 3485.000000, "LATITUDE": 37.752178, "LONGITUDE": -122.420556, "ATSTREET": "VALENCIA ST", "ONSTREET": "24TH ST" }, "geometry": { "type": "Point", "coordinates": [ -122.420556000137907, 37.752178001225658 ] } },
{ "type": "Feature", "properties": { "STOPNAME": "24th St&South Van Ness Ave SW-NS", "TRAPEZESTO": "24STSOV1", "STOPID": 3484.000000, "LATITUDE": 37.752311, "LONGITUDE": -122.416373, "ATSTREET": "SOUTH VAN NESS AVE", "ONSTREET": "24TH ST" }, "geometry": { "type": "Point", "coordinates": [ -122.416373000168704, 37.752310999677746 ] } },
{ "type": "Feature", "properties": { "STOPNAME": "24th St&Potrero Ave NW-FS\/BZ", "TRAPEZESTO": "24STPOT0", "STOPID": 3480.000000, "LATITUDE": 37.752990, "LONGITUDE": -122.406690, "ATSTREET": "POTRERO AVE", "ONSTREET": "24TH ST" }, "geometry": { "type": "Point", "coordinates": [ -122.406689999277475, 37.752990000892396 ] } },
{ "type": "Feature", "properties": { "STOPNAME": "South Van Ness & 24st. NS-SE\/PS", "TRAPEZESTO": "SOVN24ST", "STOPID": 7532.000000, "LATITUDE": 37.752275, "LONGITUDE": -122.416167, "ATSTREET": "24TH ST", "ONSTREET": "SOUTH VAN NESS AVE" }, "geometry": { "type": "Point", "coordinates": [ -122.416167000927658, 37.75227499940349 ] } },
{ "type": "Feature", "properties": { "STOPNAME": "Folsom St&Cesar Chavez St NW-NS", "TRAPEZESTO": "FOLSARM1", "STOPID": 4684.000000, "LATITUDE": 37.748480, "LONGITUDE": -122.413790, "ATSTREET": "CESAR CHAVEZ ST", "ONSTREET": "FOLSOM ST" }, "geometry": { "type": "Point", "coordinates": [ -122.413789999350129, 37.748480000527501 ] } },
{ "type": "Feature", "properties": { "STOPNAME": "Folsom St&24th St SW-FS\/PS", "TRAPEZESTO": "FOLS24ST", "STOPID": 7312.000000, "LATITUDE": 37.752444, "LONGITUDE": -122.414128, "ATSTREET": "24TH ST", "ONSTREET": "FOLSOM ST" }, "geometry": { "type": "Point", "coordinates": [ -122.414127999596772, 37.752444000923795 ] } },
{ "type": "Feature", "properties": { "STOPNAME": "Folsom St&Cesar Chavez St SE-NS\/PS", "TRAPEZESTO": "FOLSARM0", "STOPID": 4685.000000, "LATITUDE": 37.748110, "LONGITUDE": -122.413590, "ATSTREET": "CESAR CHAVEZ ST", "ONSTREET": "FOLSOM ST" }, "geometry": { "type": "Point", "coordinates": [ -122.4135899987578, 37.748110000968389 ] } },
{ "type": "Feature", "properties": { "STOPNAME": "Potrero Ave&Alameda St NE-NS", "TRAPEZESTO": "POTRALA1", "STOPID": 6042.000000, "LATITUDE": 37.768256, "LONGITUDE": -122.407667, "ATSTREET": "ALAMEDA ST", "ONSTREET": "POTRERO AVE" }, "geometry": { "type": "Point", "coordinates": [ -122.407666999502723, 37.768256000311133 ] } },
{ "type": "Feature", "properties": { "STOPNAME": "Market St&Buchanan St N-NS\/SI", "TRAPEZESTO": "MRKTBUC0", "STOPID": 5659.000000, "LATITUDE": 37.769786, "LONGITUDE": -122.426149, "ATSTREET": "BUCHANAN ST", "ONSTREET": "MARKET ST" }, "geometry": { "type": "Point", "coordinates": [ -122.426149001069916, 37.769785999394159 ] } },
{ "type": "Feature", "properties": { "STOPNAME": "Market St&Laguna St N-NS\/SI", "TRAPEZESTO": "MRKTLGN0", "STOPID": 5681.000000, "LATITUDE": 37.770953, "LONGITUDE": -122.424666, "ATSTREET": "LAGUNA ST", "ONSTREET": "MARKET ST" }, "geometry": { "type": "Point", "coordinates": [ -122.424665999318165, 37.770953000601203 ] } },
{ "type": "Feature", "properties": { "STOPNAME": "Market St&Guerrero St S-NS\/SI", "TRAPEZESTO": "MRKTGUE1", "STOPID": 5675.000000, "LATITUDE": 37.770570, "LONGITUDE": -122.424971, "ATSTREET": "GUERRERO ST", "ONSTREET": "MARKET ST" }, "geometry": { "type": "Point", "coordinates": [ -122.424971000011908, 37.770570000710229 ] } }
]
}
